{
  "status": 0,
  "message": "ok",
  "total": 400,
  "results": [
    {
      "name": "广州市梅花园汽车修理厂",
      "location": {
        "lat": 23.184853,
        "lng": 113.323549
      },
      "address": "广州市广州大道北梅花园汽车修理厂",
      "street_id": "e96b4420f955454083288ae5",
      "telephone": "(020)37290828",
      "detail": 1,
      "uid": "e96b4420f955454083288ae5"
    },
    {
      "name": "大昌汽车维修厂",
      "location": {
        "lat": 23.104833,
        "lng": 113.297894
      },
      "address": "海珠区怡乐路50号-1号",
      "street_id": "610852112e0b8cb8c41b75e5",
      "telephone": "(020)89028812",
      "detail": 1,
      "uid": "610852112e0b8cb8c41b75e5"
    },
    {
      "name": "豪迈汽车维修厂",
      "location": {
        "lat": 23.36058,
        "lng": 113.230815
      },
      "address": "雅源南路四十七附近",
      "street_id": "f0137b09b2794db308ccdd83",
      "telephone": "(020)26261675",
      "detail": 1,
      "uid": "f0137b09b2794db308ccdd83"
    },
    {
      "name": "广州市月华汽车修理厂",
      "location": {
        "lat": 23.145264,
        "lng": 113.44141
      },
      "address": "东圃珠吉路大淋岗村吉沥街1号",
      "street_id": "26753df1baa835cc0bccdd66",
      "detail": 1,
      "uid": "26753df1baa835cc0bccdd66"
    },
    {
      "name": "明驰汽车修理厂",
      "location": {
        "lat": 23.136741,
        "lng": 113.40135
      },
      "address": "车陂路自编地址598-5",
      "street_id": "238d190df0c8fd5bb72655d1",
      "telephone": "(020)61707611,13543483198",
      "detail": 1,
      "uid": "238d190df0c8fd5bb72655d1"
    },
    {
      "name": "广州市华胜奔宝汽车维修厂NO.3",
      "location": {
        "lat": 23.143196,
        "lng": 113.382026
      },
      "address": "荷光路自编1号",
      "street_id": "f41a31d0e6e78fb2931fc9fd",
      "telephone": "(020)85635712,13316188360",
      "detail": 1,
      "uid": "f41a31d0e6e78fb2931fc9fd"
    },
    {
      "name": "景宏汽车修理厂",
      "location": {
        "lat": 23.020051,
        "lng": 113.321472
      },
      "address": "大石街",
      "street_id": "d86a07c599ec1b971df74d48",
      "telephone": "13073089761",
      "detail": 1,
      "uid": "d86a07c599ec1b971df74d48"
    },
    {
      "name": "日发汽车修理厂",
      "location": {
        "lat": 23.118087,
        "lng": 113.280773
      },
      "address": "纺织路广州市磁性材料化工厂西北侧",
      "street_id": "dffd4642326c11b13d9a5ebb",
      "telephone": "18688407313",
      "detail": 1,
      "uid": "dffd4642326c11b13d9a5ebb"
    },
    {
      "name": "永祥汽车修配厂(黄埔东路)",
      "location": {
        "lat": 23.0897,
        "lng": 113.524716
      },
      "address": "广州市黄埔区黄埔东路2811号",
      "street_id": "383da3de29346554c136448e",
      "telephone": "(020)82218683",
      "detail": 1,
      "uid": "383da3de29346554c136448e"
    },
    {
      "name": "广州白云道奇汽车维修厂",
      "location": {
        "lat": 23.209176,
        "lng": 113.290297
      },
      "address": "黄石东路687号后座白云道",
      "street_id": "04bdf4a32797d74f344aaea7",
      "telephone": "(020)36400088",
      "detail": 1,
      "uid": "04bdf4a32797d74f344aaea7"
    }
  ]
}
